#,GUID,Title,Brand,Latitude,Longitude,Street No,Street,City,District,Federal State,Address,Postal Code,Wheelchair,Phone,Website,Opening hours: Monday,Opening hours: Tuesday,Opening hours: Wednesday,Opening hours: Thursday,Opening hours: Friday,Opening hours: Saturday,Opening hours: Sunday
1,F1FECE43-C189-2F61-980F-FB656C912774,ALDI Aachen,ALDI,50.7792930419999,6.120243189,139,Elsassstraße,Aachen,Städteregion Aachen,North Rhine-Westphalia,"139 Elsassstraße, Aachen, 52068, Städteregion Aachen, Germany",52068,Yes,[redacted],https://filialen.aldi-sued.de/nordrhein-westfalen/aachen/elsassstrasse-139?utm_source=google&utm_...,8:00 AM - 9:00 PM,8:00 AM - 9:00 PM,8:00 AM - 9:00 PM,8:00 AM - 9:00 PM,8:00 AM - 9:00 PM,8:00 AM - 9:00 PM,off
2,9D1300B0-269B-48DF-B330-F57354377501,ALDI Aachen,ALDI,50.71305904,6.139191927,21,Werkstraße,Aachen,Städteregion Aachen,North Rhine-Westphalia,"21 Werkstraße, Aachen, 52076, Städteregion Aachen, Germany",52076,Yes,[redacted],https://filialen.aldi-sued.de/nordrhein-westfalen/aachen/werkstrasse-21?utm_source=google&utm_med...,8:00 AM - 9:00 PM,8:00 AM - 9:00 PM,8:00 AM - 9:00 PM,8:00 AM - 9:00 PM,8:00 AM - 9:00 PM,8:00 AM - 9:00 PM,off
3,E8454BAF-66B9-F97F-A052-489883521668,ALDI Ahaus,ALDI,52.127140949,6.910461172,24,Haaksbergener Straße,Ahaus,Kreis Borken,North Rhine-Westphalia,"24 Haaksbergener Straße, Ahaus, 48683, Kreis Borken, Germany",48683,Yes,[redacted],https://www.aldi-nord.de/,7:00 AM - 8:00 PM,7:00 AM - 8:00 PM,7:00 AM - 8:00 PM,7:00 AM - 8:00 PM,7:00 AM - 8:00 PM,7:00 AM - 8:00 PM,off
4,EF3EF61C-8AE4-8EBE-47ED-8D391A511835,ALDI Amberg,ALDI,49.444417851,11.836914419,2,Rammertshofer Weg,Amberg,Amberg,Bavaria,"2 Rammertshofer Weg, Amberg, 92224, Germany",92224,Yes,[redacted],https://filialen.aldi-sued.de/bayern/amberg/rammertshofer-weg-2?utm_source=google&utm_medium=orga...,7:00 AM - 8:00 PM,7:00 AM - 8:00 PM,7:00 AM - 8:00 PM,7:00 AM - 8:00 PM,7:00 AM - 8:00 PM,7:00 AM - 8:00 PM,off
5,CAFB1188-8554-89FC-1E3E-466E5E833C27,ALDI Annaberg-Buchholz,ALDI,50.564936691,13.011489604,6,Oberwiesenthaler Weg,Annaberg-Buchholz,Erzgebirgskreis,Saxony,"6 Oberwiesenthaler Weg, Annaberg-Buchholz, 09456, Germany",9456,Yes,[redacted],https://www.aldi-nord.de/,7:00 AM - 8:00 PM,7:00 AM - 8:00 PM,7:00 AM - 8:00 PM,7:00 AM - 8:00 PM,7:00 AM - 8:00 PM,7:00 AM - 8:00 PM,off
6,D7AF44D3-A977-DB5A-C9D0-10E527A27BBD,ALDI Ansbach,ALDI,49.2960504,10.5786301,24,Feuerbachstraße,Ansbach,Ansbach,Bavaria,"24 Feuerbachstraße, Ansbach, 91522, Germany",91522,Yes,[redacted],https://filialen.aldi-sued.de/bayern/ansbach/feuerbachstrasse-24?utm_source=google&utm_medium=org...,8:00 AM - 8:00 PM,8:00 AM - 8:00 PM,8:00 AM - 8:00 PM,8:00 AM - 8:00 PM,8:00 AM - 8:00 PM,8:00 AM - 8:00 PM,off
7,EFED4177-4118-79BF-DDE6-1AB2BEB4A36D,ALDI Arnsberg,ALDI,51.460110838,7.95122961799999,16 b,Im Ohl,Arnsberg,Hochsauerlandkreis,North Rhine-Westphalia,"16 b Im Ohl, Hochsauerlandkreis, 59757, Hochsauerlandkreis, Germany",59757,Yes,[redacted],https://www.aldi-nord.de/,7:00 AM - 9:00 PM,7:00 AM - 9:00 PM,7:00 AM - 9:00 PM,7:00 AM - 9:00 PM,7:00 AM - 9:00 PM,7:00 AM - 9:00 PM,off
8,75378229-3A84-0C79-1646-4A9BCA782E28,ALDI Aschersleben,ALDI,51.749845419,11.458667678,3,Eislebener Straße,Aschersleben,Salzlandkreis,Saxony-Anhalt,"3 Eislebener Straße, Aschersleben, 06449, Germany",6449,Yes,[redacted],https://www.aldi-nord.de/,7:00 AM - 8:00 PM,7:00 AM - 8:00 PM,7:00 AM - 8:00 PM,7:00 AM - 8:00 PM,7:00 AM - 8:00 PM,7:00 AM - 8:00 PM,off
9,BDBDB430-5DA1-E813-809F-E800C35BFCFC,ALDI Auerbach/Vogtland,ALDI,50.513322692,12.397686197,15 a,Bahnhofstraße,Auerbach/Vogtland,Vogtlandkreis,Saxony,"15 a Bahnhofstraße, Auerbach/Vogtland, 08209, Germany",8209,Yes,[redacted],https://www.aldi-nord.de/,7:00 AM - 8:00 PM,7:00 AM - 8:00 PM,7:00 AM - 8:00 PM,7:00 AM - 8:00 PM,7:00 AM - 8:00 PM,7:00 AM - 8:00 PM,off
10,A226293C-CE5E-34D0-F8AE-8DD95BCC1319,ALDI Augsburg,ALDI,48.3553420069999,10.910472469,9,Hofrat-Röhrer-Straße,Augsburg,Augsburg,Bavaria,"9 Hofrat-Röhrer-Straße, Augsburg, 86161, Germany",86161,Yes,[redacted],https://filialen.aldi-sued.de/bayern/augsburg/hofrat-roehrer-strasse-9?utm_source=google&utm_medi...,7:00 AM - 8:00 PM,7:00 AM - 8:00 PM,7:00 AM - 8:00 PM,7:00 AM - 8:00 PM,7:00 AM - 8:00 PM,7:00 AM - 8:00 PM,off
11,A65D04F0-AAE0-4561-AD5E-76094B286E13,ALDI Aurich,ALDI,53.484241067,7.492058745,123,Wiesenstraße,Aurich,Landkreis Aurich,Lower Saxony,"123 Wiesenstraße, Aurich, 26603, Germany",26603,Yes,[redacted],https://www.aldi-nord.de/tools/filialen-und-oeffnungszeiten/niedersachsen/aurich/wiesenstrasse-12...,7:00 AM - 9:00 PM,7:00 AM - 9:00 PM,7:00 AM - 9:00 PM,7:00 AM - 9:00 PM,7:00 AM - 9:00 PM,7:00 AM - 9:00 PM,off
12,F3E7FC50-0990-BF85-08E1-2C9ECC35ADA4,ALDI Aurich,ALDI,53.458275142,7.498868558,17,Raiffeisenstraße,Aurich,Landkreis Aurich,Lower Saxony,"17 Raiffeisenstraße, Aurich, 26603, Germany",26603,Yes,[redacted],https://www.aldi-nord.de/tools/filialen-und-oeffnungszeiten/niedersachsen/aurich/raiffeisenstrass...,7:00 AM - 8:00 PM,7:00 AM - 8:00 PM,7:00 AM - 8:00 PM,7:00 AM - 8:00 PM,7:00 AM - 8:00 PM,7:00 AM - 8:00 PM,off
13,8F72CFDF-3204-B93C-374B-9698AC9494FC,ALDI Bad Bodenteich,ALDI,52.833681076,10.675554866,7,Bergstraße,Bad Bodenteich,Uelzen,Lower Saxony,"7 Bergstraße, Bad Bodenteich, 29389, Germany",29389,Yes,[redacted],https://www.aldi-nord.de/,7:00 AM - 8:00 PM,7:00 AM - 8:00 PM,7:00 AM - 8:00 PM,7:00 AM - 8:00 PM,7:00 AM - 8:00 PM,7:00 AM - 8:00 PM,off
14,C9799004-EEDE-1022-E4AF-187C2D764EA5,ALDI Bad Endorf,ALDI,47.91909459,12.2927312,18,Im Gewerbegebiet,Bad Endorf,Landkreis Rosenheim,Bavaria,"18 Im Gewerbegebiet, Bad Endorf, 83093, Landkreis Rosenheim, Germany",83093,Yes,[redacted],https://filialen.aldi-sued.de/bayern/bad-endorf/im-gewerbegebiet-18?utm_source=google&utm_medium=...,8:00 AM - 8:00 PM,8:00 AM - 8:00 PM,8:00 AM - 8:00 PM,8:00 AM - 8:00 PM,8:00 AM - 8:00 PM,8:00 AM - 8:00 PM,off
15,21A8FE6C-7B9B-B5D3-4BFB-0043BE5DEF17,ALDI Bad Lippspringe,ALDI,51.78895745,8.824884058,221-225,Detmolder Straße,Bad Lippspringe,Kreis Paderborn,North Rhine-Westphalia,"221-225 Kreis Paderborner Straße, Bad Lippspringe, 33175, Kreis Paderborn, Germany",33175,Yes,[redacted],https://www.aldi-nord.de/,7:00 AM - 8:00 PM,7:00 AM - 8:00 PM,7:00 AM - 8:00 PM,7:00 AM - 8:00 PM,7:00 AM - 8:00 PM,7:00 AM - 8:00 PM,off
16,8D1D40E5-6993-6C1F-9D2C-E73012B293EC,ALDI Bad Salzuflen,ALDI,52.068676296,8.75281409,18,Uferstraße,Bad Salzuflen,Kreis Lippe,North Rhine-Westphalia,"18 Uferstraße, Bad Salzuflen, 32108, Kreis Lippe, Germany",32108,Yes,[redacted],https://www.aldi-nord.de/,7:00 AM - 8:00 PM,7:00 AM - 8:00 PM,7:00 AM - 8:00 PM,7:00 AM - 8:00 PM,7:00 AM - 8:00 PM,7:00 AM - 8:00 PM,off
17,FB919BED-996B-03E5-B598-D1D8C76563A4,ALDI Bad Sassendorf,ALDI,51.5793407059999,8.16023982399999,65,Schützenstraße,Bad Sassendorf,Kreis Soest,North Rhine-Westphalia,"65 Schützenstraße, Bad Sassendorf, 59505, Kreis Soest, Germany",59505,Yes,[redacted],https://www.aldi-nord.de/,7:00 AM - 9:00 PM,7:00 AM - 9:00 PM,7:00 AM - 9:00 PM,7:00 AM - 9:00 PM,7:00 AM - 9:00 PM,7:00 AM - 9:00 PM,off
18,767FBD60-D83E-E6B9-7900-0BE372C7FFE8,ALDI Bad Sooden-Allendorf,ALDI,51.264085567,9.97326048,6,Werrastraße,Bad Sooden-Allendorf,Werra-Meißner-Kreis,Hesse,"6 Werrastraße, Bad Sooden-Allendorf, 37242, Werra-Meißner-Kreis, Germany",37242,Yes,[redacted],https://www.aldi-nord.de/,7:00 AM - 8:00 PM,7:00 AM - 8:00 PM,7:00 AM - 8:00 PM,7:00 AM - 8:00 PM,7:00 AM - 8:00 PM,7:00 AM - 8:00 PM,off
19,2D5F03C4-F703-45A3-5079-E2B68EF31A13,ALDI Barleben,ALDI,52.202329537,11.619451512,51,Breiteweg,Barleben,Börde,Saxony-Anhalt,"51 Breiteweg, Barleben, 39179, Germany",39179,Yes,[redacted],https://www.aldi-nord.de/,7:00 AM - 8:00 PM,7:00 AM - 8:00 PM,7:00 AM - 8:00 PM,7:00 AM - 8:00 PM,7:00 AM - 8:00 PM,7:00 AM - 8:00 PM,off
20,B3B5D4AC-CD42-0D51-66C5-94E7A216D50D,ALDI Barntrup,ALDI,51.995722939,9.119213972,7,Alverdisser Straße,Barntrup,Kreis Lippe,North Rhine-Westphalia,"7 Alverdisser Straße, Barntrup, 32683, Kreis Lippe, Germany",32683,Yes,[redacted],https://www.aldi-nord.de/,7:00 AM - 8:00 PM,7:00 AM - 8:00 PM,7:00 AM - 8:00 PM,7:00 AM - 8:00 PM,7:00 AM - 8:00 PM,7:00 AM - 8:00 PM,off
